{"type" : "FeatureCollection", "features" : [{"type": "Feature", "geometry": {"type":"Point","coordinates":[-72.89266,41.393379]}, "properties": {"id": 1, "name": "Mom and Dad", "address": "69 Riverside Dr. Hamden, CT 06158", "lat": 41.393379, "lon": -72.89266, "addnumber": 69, "street": "Riverside Dr", "city": "Hamden", "state": "CT", "county": "New Haven County"}}, {"type": "Feature", "geometry": {"type":"Point","coordinates":[-72.898531,41.384939]}, "properties": {"id": 2, "name": "Gram", "address": "75 Washington Ave. Bldg. 8 Unit 405 Hamden, CT 06518", "lat": 41.384939, "lon": -72.898531, "addnumber": 75, "street": "Washington Ave", "city": "Hamden", "state": "CT", "county": "New Haven County"}}, {"type": "Feature", "geometry": {"type":"Point","coordinates":[-73.224473,41.244327]}, "properties": {"id": 3, "name": "Georgie", "address": "60 Bassick Rd. Trumbull, CT 06611", "lat": 41.244327, "lon": -73.224473, "addnumber": 60, "street": "Bassick Rd", "city": "Trumbull", "state": "CT", "county": "Fairfield County"}}, {"type": "Feature", "geometry": {"type":"Point","coordinates":[-73.228465,41.420687]}, "properties": {"id": 4, "name": "Kurt and Sharon", "address": "11 Russett Road Sandy Hook, CT 06482", "lat": 41.420687, "lon": -73.228465, "addnumber": 11, "street": "Russett Rd", "city": "Sandy Hook", "state": "CT", "county": "Fairfield County"}}, {"type": "Feature", "geometry": {"type":"Point","coordinates":[-72.560515,41.289888]}, "properties": {"id": 5, "name": "Alicia and Gregg Mirando", "address": "2 Shore Drive Clinton, CT 06413", "lat": 41.289888, "lon": -72.560515, "addnumber": 2, "street": "W Shore Dr", "city": "Clinton", "state": "CT", "county": "Middlesex County"}}, {"type": "Feature", "geometry": {"type":"Point","coordinates":[-72.582951,41.277269]}, "properties": {"id": 6, "name": "Mom Bradley", "address": "17 Liberty St. Madison, CT 06443", "lat": 41.277269, "lon": -72.582951, "addnumber": 17, "street": "Liberty St", "city": "Madison", "state": "CT", "county": "New Haven County"}}, {"type": "Feature", "geometry": {"type":"Point","coordinates":[-72.523979,41.297999]}, "properties": {"id": 7, "name": "Jill and Kris", "address": "3 Ninety Rod Rd. Clinton, CT 06413", "lat": 41.297999, "lon": -72.523979, "addnumber": 3, "street": "Ninety Rod Rd", "city": "Clinton", "state": "CT", "county": "Middlesex County"}}, {"type": "Feature", "geometry": {"type":"Point","coordinates":[-72.512546,41.304776]}, "properties": {"id": 8, "name": "Kara and Jay", "address": "35 Valley Rd. Clinton, CT 06413", "lat": 41.304776, "lon": -72.512546, "addnumber": 35, "street": "Valley Rd", "city": "Clinton", "state": "CT", "county": "Middlesex County"}}, {"type": "Feature", "geometry": {"type":"Point","coordinates":[-72.86777,41.248135]}, "properties": {"id": 9, "name": "Billye Bradley and Ken Cain", "address": "19 Stevens St. East Haven, CT 06512", "lat": 41.248135, "lon": -72.86777, "addnumber": 19, "street": "Stevens St", "city": "East Haven", "state": "CT", "county": "New Haven County"}}, {"type": "Feature", "geometry": {"type":"Point","coordinates":[-72.482937,41.810143]}, "properties": {"id": 10, "name": "Jackie and Chris Corcoran", "address": "28 Colgate Dr. Manchester, CT 06042", "lat": 41.810143, "lon": -72.482937, "addnumber": 28, "street": "Colgate Dr", "city": "Oakland", "state": "CT", "county": "Hartford County"}}, {"type": "Feature", "geometry": {"type":"Point","coordinates":[-72.873359,41.395525]}, "properties": {"id": 11, "name": "Stephanie and Dino Dabbraccio", "address": "11 Helen Dr. North Haven, CT 06473", "lat": 41.395525, "lon": -72.873359, "addnumber": 11, "street": "Helen Dr", "city": "North Haven", "state": "CT", "county": "New Haven County"}}, {"type": "Feature", "geometry": {"type":"Point","coordinates":[-70.538444,41.795802]}, "properties": {"id": 12, "name": "Sara and Tim Roth", "address": "348 Old Plymouth Rd. Sagamore Beach, MA 02562", "lat": 41.795802, "lon": -70.538444, "addnumber": 348, "street": "Old Plymouth Rd", "city": "Sagamore Beach", "state": "MA", "county": "Barnstable County"}}, {"type": "Feature", "geometry": {"type":"Point","coordinates":[-72.737619,41.419167]}, "properties": {"id": 13, "name": "Dan and Mariella Monico", "address": "61 Brookfield Dr. Northford, CT 06472", "lat": 41.419167, "lon": -72.737619, "addnumber": 61, "street": "Brookfield Dr", "city": "Northford", "state": "CT", "county": "New Haven County"}}, {"type": "Feature", "geometry": {"type":"Point","coordinates":[-73.144899,41.221624]}, "properties": {"id": 14, "name": "Claire and Kyle Bowerman", "address": "115 Hitching Post Lane Stratford, CT 06614", "lat": 41.221624, "lon": -73.144899, "addnumber": 115, "street": "Hitching Post Ln", "city": "Stratford", "state": "CT", "county": "Fairfield County"}}, {"type": "Feature", "geometry": {"type":"Point","coordinates":[-72.683257,41.283084]}, "properties": {"id": 15, "name": "Mix Design Store", "address": "29 Whitfield St. Guilford, CT 06437", "lat": 41.283084, "lon": -72.683257, "addnumber": 29, "street": "Whitfield St", "city": "Guilford", "state": "CT", "county": "New Haven County"}}, {"type": "Feature", "geometry": {"type":"Point","coordinates":[-72.866019,41.597325]}, "properties": {"id": 16, "name": "Maureen Cop and Rick Valletta", "address": "28 Surrey Circle Southington, CT 06489", "lat": 41.597325, "lon": -72.866019, "addnumber": 28, "street": "Surrey Cir", "city": "Southington", "state": "CT", "county": "Hartford County"}}, {"type": "Feature", "geometry": {"type":"Point","coordinates":[-72.833668,41.473252]}, "properties": {"id": 17, "name": "Marissa and Louie DiGioia", "address": "6 Laura Lane Wallingford, CT 06492", "lat": 41.473252, "lon": -72.833668, "addnumber": 6, "street": "Laura Ln", "city": "Wallingford", "state": "CT", "county": "New Haven County"}}, {"type": "Feature", "geometry": {"type":"Point","coordinates":[-72.866251,41.45324]}, "properties": {"id": 18, "name": "Kathy and Jim DeBlasio", "address": "15 Broadview Dr. Wallingford, CT 06492", "lat": 41.45324, "lon": -72.866251, "addnumber": 15, "street": "Broadview Dr", "city": "Wallingford", "state": "CT", "county": "New Haven County"}}, {"type": "Feature", "geometry": {"type":"Point","coordinates":[-72.912386,41.382376]}, "properties": {"id": 19, "name": "MaryJane and Ed Maturo", "address": "28 Westminister St. Hamden, CT 06518", "lat": 41.382376, "lon": -72.912386, "addnumber": 28, "street": "Westminster St", "city": "Hamden", "state": "CT", "county": "New Haven County"}}, {"type": "Feature", "geometry": {"type":"Point","coordinates":[-72.922796,41.474156]}, "properties": {"id": 20, "name": "Linda and Gary Rittel ", "address": "73 Roslyn Dr. Cheshire, CT 06410", "lat": 41.474156, "lon": -72.922796, "addnumber": 73, "street": "Roslyn Dr", "city": "Cheshire", "state": "CT", "county": "New Haven County"}}, {"type": "Feature", "geometry": {"type":"Point","coordinates":[-73.246259,41.160404]}, "properties": {"id": 21, "name": "Emily Garvey ", "address": "27 Green Acres Lane Fairfield, CT 06824", "lat": 41.160404, "lon": -73.246259, "addnumber": 27, "street": "Green Acres Ln", "city": "Fairfield", "state": "CT", "county": "Fairfield County"}}, {"type": "Feature", "geometry": {"type":"Point","coordinates":[-72.841817,41.277386]}, "properties": {"id": 22, "name": "Plourde Family ", "address": "18 Hoadley Rd. Branford, CT 06405", "lat": 41.277386, "lon": -72.841817, "addnumber": 18, "street": "Hoadley Rd", "city": "Branford", "state": "CT", "county": "New Haven County"}}, {"type": "Feature", "geometry": {"type":"Point","coordinates":[-73.053832,40.807154]}, "properties": {"id": 23, "name": "Natalie and Tom Niemczyk", "address": "124 Singingwood Dr. Holbrook, NY 11741", "lat": 40.807154, "lon": -73.053832, "addnumber": 124, "street": "Singingwood Dr", "city": "Holbrook", "state": "NY", "county": "Suffolk County"}}, {"type": "Feature", "geometry": {"type":"Point","coordinates":[-72.682921,41.582313]}, "properties": {"id": 24, "name": "Jessica and Eric Romeo", "address": "387 Mile Lane Middletown 06457", "lat": 41.582313, "lon": -72.682921, "addnumber": 387, "street": "Mile Ln", "city": "Middletown", "state": "CT", "county": "Middlesex County"}}, {"type": "Feature", "geometry": {"type":"Point","coordinates":[-105.113982,39.884725]}, "properties": {"id": 25, "name": "Sit Means Sit South Denver", "address": "10430 Moore CT WestMinister, CO 80021", "lat": 39.884725, "lon": -105.113982, "addnumber": 10430, "street": "Moore Ct", "city": "Broomfield", "state": "CO", "county": "Jefferson County"}}, {"type": "Feature", "geometry": {"type":"Point","coordinates":[-122.279135,47.707578]}, "properties": {"id": 26, "name": "Adam Geoffroy and Jordan Kimball", "address": "10714 Sand point Way NE Seattle, WA 98125", "lat": 47.707578, "lon": -122.279135, "addnumber": 10714, "street": "Sand Point Way NE", "city": "Seattle", "state": "WA", "county": "King County"}}, {"type": "Feature", "geometry": {"type":"Point","coordinates":[-118.298662,33.786594]}, "properties": {"id": 27, "name": "Alexis and Chris ", "address": "119 Towne St, Apt 679", "lat": 33.786594, "lon": -118.298662, "addnumber": 119, "street": null, "city": "Downey", "state": "CA", "county": "Los Angeles County"}}]}